{
"type": "FeatureCollection",
"name": "resto_points",
"crs": { "type": "name", "properties": { "name": "urn:ogc:def:crs:OGC:1.3:CRS84" } },
"features": [
{ "type": "Feature", "properties": { "name": "Sultan Masakan Timur Tengah", "latitude": -6.3065683177229399, "longitude": null, "field_4": null, "rating": "4,6", "address": "Ruko Versailles Blok FA No 8 BSD City, Rw. Buntu, Kec. Serpong, Kota Tangerang Selatan, Banten 15310", "phone": "+6282210077262" }, "geometry": { "type": "Point", "coordinates": [ 106.674589044179996, -6.30656831772294 ] } },
{ "type": "Feature", "properties": { "name": "Kampung Kecil BSD", "latitude": -6.3171593835853201, "longitude": null, "field_4": null, "rating": "4,7", "address": "Jl. Kencana Loka Sektor XII.2, Jl. Artowijoyo No.40, Lengkong Wetan, Kec. Serpong, Kota Tangerang Selatan, Banten", "phone": "+6285281812039" }, "geometry": { "type": "Point", "coordinates": [ 106.687281209060998, -6.31715938358532 ] } },
{ "type": "Feature", "properties": { "name": "Kuilo Coffee And Kitchen", "latitude": -6.3213397672183396, "longitude": null, "field_4": null, "rating": "4,7", "address": "Jl. Masjid Ciater No.16 A, Ciater, Kec. Serpong, Kota Tangerang Selatan, Banten 15310", "phone": "+6281998405432" }, "geometry": { "type": "Point", "coordinates": [ 106.700222868582998, -6.32133976721834 ] } },
{ "type": "Feature", "properties": { "name": "Warung Tuman BSD", "latitude": -6.3204466776820798, "longitude": null, "field_4": null, "rating": "4,5", "address": "Jl. Ciater Tengah, Ciater, Kec. Serpong, Kota Tangerang Selatan, Banten 15310", "phone": "+6285691108646" }, "geometry": { "type": "Point", "coordinates": [ 106.690759657672004, -6.32044667768208 ] } },
{ "type": "Feature", "properties": { "name": "Sushi Matsu BSD", "latitude": -6.3051372149611096, "longitude": null, "field_4": null, "rating": "4,6", "address": "BSD City Serpong, Ruko Madrid, Jl. Letnan Sutopo 2 Blok G No 6, Rw. Mekar Jaya, Kec. Serpong, Kota Tangerang Selatan, Banten 15311", "phone": "+6282114602969" }, "geometry": { "type": "Point", "coordinates": [ 106.686281551389996, -6.30513721496111 ] } },
{ "type": "Feature", "properties": { "name": "Warung Bu Kris BSD", "latitude": -6.3051826469463004, "longitude": null, "field_4": null, "rating": "4,8", "address": "Ruko Golden Madrid 2, Jl. Letnan Sutopo blok G7, Rw. Mekar Jaya, Kec. Serpong, Kota Tangerang Selatan, Banten 15310", "phone": "+6287898985088" }, "geometry": { "type": "Point", "coordinates": [ 106.686387117563001, -6.3051826469463 ] } },
{ "type": "Feature", "properties": { "name": "Bukit Pelayangan Resto", "latitude": -6.3097392189298898, "longitude": null, "field_4": null, "rating": "4,3", "address": "Jl. Cilenggang 1 No.53, Cilenggang, Kec. Serpong, Kota Tangerang Selatan, Banten 1531", "phone": "+62215382626 "}, "geometry": { "type": "Point", "coordinates": [ 106.669697284655001, -6.30973921892989 ] } },
{ "type": "Feature", "properties": { "name": "Ayam Kremes Bu Tjondro BSD", "latitude": -6.3004070035461597, "longitude": null, "field_4": null, "rating": "4,4", "address": "Jl. Sumatra No.G1 No.32, Rw. Mekar Jaya, Kec. Serpong, Kota Tangerang Selatan, Banten 15310", "phone": "+622155691000" }, "geometry": { "type": "Point", "coordinates": [ 106.689938913442006, -6.30040700354616 ] } },
{ "type": "Feature", "properties": { "name": "Rumah Makan Jati", "latitude": -6.3126796369542202, "longitude": null, "field_4": null, "rating": "4,4", "address": "Jl. Ciater Raya No.2, Rw. Mekar Jaya, Kec. Serpong, Kota Tangerang Selatan, Banten 15310", "phone": "+62217566520 "}, "geometry": { "type": "Point", "coordinates": [ 106.691538066733003, -6.31267963695422 ] } },
{ "type": "Feature", "properties": { "name": "Rumah Makan Ujung Pandang", "latitude": -6.3078405307701102, "longitude": null, "field_4": null, "rating": "4,6", "address": "Ruko Versailles, Blok FC No 1, Rw. Buntu, Kec. Serpong, Kota Tangerang Selatan, Banten 15318", "phone": "+622153164646" }, "geometry": { "type": "Point", "coordinates": [ 106.673547313441006, -6.30784053077011 ] } },
{ "type": "Feature", "properties": { "name": "Restoran Surgana Rasa", "latitude": -6.3218040876281396, "longitude": null, "field_4": null, "rating": "4,4", "address": "Jl. Raya Rawa Buntu No.18, Buntu, Kec. Serpong, Kota Tangerang Selatan, Banten 15318", "phone": "+6281388885673" }, "geometry": { "type": "Point", "coordinates": [ 106.682591628835993, -6.32180408762814 ] } },
{ "type": "Feature", "properties": { "name": "Omah Kulina BSD", "latitude": -6.3034815728345901, "longitude": null, "field_4": null, "rating": "4,6", "address": "Ruko Bsd Sektor 1, Ruko Griya Loka Blok RD-2 No.8, Jl. Griya Loka Raya No.2, Rw. Buntu, Kec. Serpong, Kota Tangerang Selatan, Banten 15310", "phone": "+6281299783717" }, "geometry": { "type": "Point", "coordinates": [ 106.683197598101998, -6.30348157283459 ] } },
{ "type": "Feature", "properties": { "name": "Sore Izakaya BSD", "latitude": -6.3061979938928197, "longitude": null, "field_4": null, "rating": "4,5", "address": "Jl. Palm Anggur No.1, RT.1/RW.7, Rw. Buntu, Kec. Serpong, Kota Tangerang Selatan, Banten 15310", "phone": "+622153192453" }, "geometry": { "type": "Point", "coordinates": [ 106.679288786466998, -6.30619799389282 ] } },
{ "type": "Feature", "properties": { "name": "Gubug Berkah Resto BSD", "latitude": -6.3315905103209298, "longitude": null, "field_4": null, "rating": "4,8", "address": "BSD City, Jl. Raya Viktor Bsd Jl. Ciater Bar. No.54, Ciater, Kec. Serpong, Kota Tangerang Selatan, Banten 15310", "phone": "+62819848777 "}, "geometry": { "type": "Point", "coordinates": [ 106.686277930689002, -6.33159051032093 ] } },
{ "type": "Feature", "properties": { "name": "Jasunda", "latitude": -6.3203508275534697, "longitude": null, "field_4": null, "rating": "4,8", "address": "Blok K1 No.1, Jl. Kencana Raya, Rw. Buntu, Kec. Serpong, Kota Tangerang Selatan, Banten 15318", "phone": "+6282182273968" }, "geometry": { "type": "Point", "coordinates": [ 106.684455184623005, -6.32035082755347 ] } },
{ "type": "Feature", "properties": { "name": "Regal Dim Sum & Mie Ceker", "latitude": -6.2811386369195299, "longitude": null, "field_4": null, "rating": "4,4", "address": "Ruko BSD Sektor 4 Blok RF No. 36, Lengkong Wetan, Kec. Serpong, Kota Tangerang Selatan, Banten 15310", "phone": "+628119905558" }, "geometry": { "type": "Point", "coordinates": [ 106.6636771, -6.28113863691953 ] } },
{ "type": "Feature", "properties": { "name": "Lembur Kuring BSD", "latitude": -6.2991124266366896, "longitude": null, "field_4": null, "rating": "4,5", "address": "Sunburst BSD Lot II No. 7, Jl. Kapten Soebijanto Djojohadikusumo, BSD City, Lengkong Gudang, Tangerang, Jl. Boulevard BSD Tim., Lengkong Gudang, Kec. Serpong, Kota Tangerang Selatan, Banten 15321", "phone": "+622153156655" }, "geometry": { "type": "Point", "coordinates": [ 106.665237357617002, -6.29911242663669 ] } }
]
}
